[
{"title": "Venta Apartamentos Frente Al Parque Omar - San Francisco, PH Residencias del Sol", "size_m2": "165m²", "price": 175000, "latitude": 9.00423696661986, "longitude": -79.5088486656067},
{"title": "Prestige - Bella Vista - Sólo 2 por Piso!", "size_m2": "180m²", "price": 395000, "latitude": 8.976315699999999, "longitude": -79.52907859999999},
{"title": "Le Parc Residences - Apartamentos en Venta Frente Al Parque Omar - San Francisco", "size_m2": "117m²", "price": 163000, "latitude": 8.997436138383797, "longitude": -79.51300508836061},
{"title": "The Gray Calle 50", "size_m2": "58m²", "price": 119900, "latitude": 8.992788848810461, "longitude": -79.50614798097638},
{"title": "Apartamentos en Hato Pintado - 12 de Octubre - Via España - en Construcción", "size_m2": "", "price": 115000, "latitude": 9.0101104, "longitude": -79.5128081},
{"title": "El Botánico", "size_m2": "48m²", "price": 118000, "latitude": 8.975206752615954, "longitude": -79.53425190213011},
{"title": "Sabana Tower en Vía España y La 12 de Octubre", "size_m2": "", "price": 180750, "latitude": 8.99776464104048, "longitude": -79.5182907715365},
{"title": "Torres de Castilla - Vía España. Entrega Inmediata!", "size_m2": "", "price": 191620, "latitude": 8.99974493807578, "longitude": -79.51764484603268},
{"title": "Alto Rio | Vive por Todo Lo Alto en El Centro de La Ciudad", "size_m2": "71m²", "price": 151500, "latitude": 9.0124455, "longitude": -79.5042661},
{"title": "Forest Village y Park Village Residencial", "size_m2": "162m²", "price": 80000, "latitude": 8.938808800000002, "longitude": -79.7349519},
{"title": "Super Super Ganga Apartamento en Costa del Este", "size_m2": "292m²", "price": 532900, "latitude": 9.0103723, "longitude": -79.4647577},
{"title": "Vendo Apartamento en PH Don Omar", "size_m2": "55m²", "price": 120000, "latitude": 8.996728899999999, "longitude": -79.5098708},
{"title": "Venta Apartamento en Bella Vista. Belle View. 3 Habitaciones", "size_m2": "125m²", "price": 220000, "latitude": 8.974777324916266, "longitude": -79.52992640832065},
{"title": "PH Terramar - San Francisco - Apartamento Vista Al Mar", "size_m2": "110m²", "price": 200000, "latitude": 8.987586766644307, "longitude": -79.50131696560669},
{"title": "Super Ganga Apt Nuevo Lujoso Aaa con Full Linea Blanca en Coco del Mar 1300", "size_m2": "124m²", "price": 1300, "latitude": 8.987586766644307, "longitude": -79.50131696560669},
{"title": "Apartamento en Venta en PH Midpark, Carrasquilla", "size_m2": "78m²", "price": 165000, "latitude": 8.987586766644307, "longitude": -79.50131696560669},
{"title": "Venta Apto en Río Abajo PH Torres de Vía España", "size_m2": "76m²", "price": 105000, "latitude": 9.022739004320785, "longitude": -79.48968904754639},
{"title": "A Estrenar en Vista Hermosa - Bono Hasta 8000$", "size_m2": "87m²", "price": 179000, "latitude": 8.996517278996023, "longitude": -79.52162857860412},
{"title": "Costa del Este | PH Vitri | Venta", "size_m2": "640m²", "price": 1550000, "latitude": 9.010194618863428, "longitude": -79.46440995246166},
{"title": "¡Oferta! Lujoso Penthouse con Vista Al Mar - Paitilla", "size_m2": "460m²", "price": 625000, "latitude": 8.976021648844611, "longitude": -79.51241611877134},
{"title": "Se Vende Exclusivo Apartamento en PH Miramar, Torre 2, Av Balboa", "size_m2": "750m²", "price": 1150000, "latitude": 8.974699683177619, "longitude": -79.52746575501709},
{"title": "Se Alquila o Se Vende Lindo Apartamento Amoblado en Edison Park", "size_m2": "90m²", "price": 800, "latitude": 8.99540694636564, "longitude": -79.53075525386316},
{"title": "Haga Su Cita Hoy - Alquiler Av Balboa - PH Vista del Mar - Remodalado Amoblado", "size_m2": "114m²", "price": 270000, "latitude": 8.9738898512656, "longitude": -79.53010827877749},
{"title": "Se Vende Apartamento en La Transístmica", "size_m2": "95m²", "price": 155000, "latitude": 9.003483801753237, "longitude": -79.52244910603571},
{"title": "Apt Amoblado Lujoso Aaa 1r1.5b1p Vista a Mar en PH Oasis Punta Pacifica 1200", "size_m2": "93m²", "price": 300000, "latitude": 9.003483801753237, "longitude": -79.52244910603571}
]